{
  "data": [
        {
      "name": "제기동호박부동산공인중개사사무소",
      "owner": "박경애",
      "address": "서울특별시 동대문구 약령시로15길  4, 105호(제기동)",
      "lon": "127.0418273",
      "lat": "37.5833275"
    },
        {
      "name": "박사부동산(02-2217-6000)공인중개사사무소",
      "owner": "강봉구",
      "address": "서울특별시 동대문구 답십리로 130, 단지내상가 근생4-4(답십리동, 래미안위브)",
      "lon": "127.0538624",
      "lat": "37.5712880"
    },
        {
      "name": "한마음공인중개사사무소",
      "owner": "백태현",
      "address": "서울특별시 동대문구  망우로12길 5(휘경동)",
      "lon": "127.0593156",
      "lat": "37.5888463"
    },
        {
      "name": "현대썬앤빌공인중개사사무소",
      "owner": "조경희",
      "address": "서울특별시 동대문구 장한로  91(장안동, 현대썬앤빌601)",
      "lon": "127.0693529",
      "lat": "37.5691502"
    },
        {
      "name": "현대공인중개사사무소",
      "owner": "성백희",
      "address": "서울특별시 동대문구  고산자로30길 30, 1층(용두동)",
      "lon": "127.0399797",
      "lat": "37.5758084"
    },
        {
      "name": "미소공인중개사사무소",
      "owner": "최상묵",
      "address": "서울특별시 동대문구 왕산로 10, 11층 110호(신설동)",
      "lon": "127.0248807",
      "lat": "37.5758951"
    },
        {
      "name": "삼주공인중개사사무소",
      "owner": "안주원",
      "address": "서울특별시 동대문구  고산자로 562(제기동)",
      "lon": "127.0367643",
      "lat": "37.5895833"
    },
        {
      "name": "홍익부동산공인중개사사무소",
      "owner": "한석수",
      "address": "서울특별시 동대문구 홍릉로  16-1, 1층(청량리동)",
      "lon": "127.0449179",
      "lat": "37.5818382"
    },
        {
      "name": "태양한신공인중개사사무소",
      "owner": "조상연",
      "address": "서울특별시 동대문구 서울시립대로  13(답십리동)",
      "lon": "127.0450132",
      "lat": "37.5731871"
    },
        {
      "name": "부동산박사공인중개사사무소",
      "owner": "이상일",
      "address": "서울특별시 동대문구 전농로10길 20, 상가1동 111호(답십리동, 답십리청솔우성아파트)",
      "lon": "127.0595904",
      "lat": "37.5748316"
    },
        {
      "name": "래미안크레시티(2212-1333)공인중개사사무소",
      "owner": "이진선",
      "address": "서울특별시 동대문구 사가정로 65, 근린생활시설1동 112호(전농동, 래미안 크레시티)",
      "lon": "127.0515338",
      "lat": "37.5767239"
    },
        {
      "name": "래미안아름숲(단지내)공인중개사사무소",
      "owner": "최은숙",
      "address": "서울특별시 동대문구 사가정로17길  15, 101호(전농동)",
      "lon": "127.0600197",
      "lat": "37.5785949"
    },
        {
      "name": "탑공인중개사사무소",
      "owner": "김종화",
      "address": "서울특별시 동대문구 장한로  27, 1층(장안동)",
      "lon": "127.0659352",
      "lat": "37.5639667"
    },
        {
      "name": "제일부동산중개사무소",
      "owner": "이경애",
      "address": "서울특별시 동대문구 답십리로65길  124, 1층(장안동)",
      "lon": "127.0702501",
      "lat": "37.5780197"
    },
        {
      "name": "고려공인중개사사무소",
      "owner": "김만규",
      "address": "서울특별시 동대문구 회기로  174-11(회기동)",
      "lon": "127.0548666",
      "lat": "37.5898239"
    },
        {
      "name": "봄부동산공인중개사사무소",
      "owner": "강성애",
      "address": "서울특별시 동대문구 망우로16길 17-2, 1층 우측(휘경동)",
      "lon": "127.0614494",
      "lat": "37.5892640"
    },
        {
      "name": "센터공인중개사사무소",
      "owner": "조재완",
      "address": "서울특별시 동대문구  휘경로3길 8(이문동)",
      "lon": "127.0623617",
      "lat": "37.5959936"
    },
        {
      "name": "한국공인중개사사무소",
      "owner": "박상태",
      "address": "서울특별시 동대문구 무학로27길  5, 101호(용두동)",
      "lon": "127.0302625",
      "lat": "37.5744908"
    },
        {
      "name": "에뜨와르공인중개사사무소",
      "owner": "주필종",
      "address": "서울특별시 동대문구  한천로24길 70(장안동)",
      "lon": "127.0683044",
      "lat": "37.5687427"
    },
        {
      "name": "인정공인중개사사무소",
      "owner": "김희종",
      "address": "서울특별시 동대문구 답십리로69길  8, 1층(장안동)",
      "lon": "127.0740370",
      "lat": "37.5727219"
    },
        {
      "name": "신라부동산공인중개사사무소",
      "owner": "송칠종",
      "address": "서울특별시 동대문구 답십리로48다길  2(답십리동)",
      "lon": "127.0577710",
      "lat": "37.5694065"
    },
        {
      "name": "새천년공인중개사사무소",
      "owner": "이양수",
      "address": "서울특별시 동대문구 망우로  116(휘경동)",
      "lon": "127.0660597",
      "lat": "37.5909628"
    },
        {
      "name": "황금단지내공인중개사사무소",
      "owner": "정희",
      "address": "서울특별시 동대문구 답십리로  130, 단지내상가 근생 2-5호(답십리동, 래미안위브)",
      "lon": "127.0538624",
      "lat": "37.5712880"
    },
        {
      "name": "대우부동산공인중개사사무소",
      "owner": "박규호",
      "address": "서울특별시 동대문구 왕산로  86, 109-2호(용두동, 동대문푸르지오시티 상가)",
      "lon": "127.0324762",
      "lat": "37.5777567"
    },
        {
      "name": "우리부동산공인중개사사무소",
      "owner": "유용기",
      "address": "서울특별시 동대문구 이문로 48(휘경동)",
      "lon": "127.0573895",
      "lat": "37.5916557"
    },
        {
      "name": "굿모닝김석현공인중개사사무소",
      "owner": "김석현",
      "address": "서울특별시 동대문구 답십리로69길  8, 1층 (장안동)",
      "lon": "127.0740370",
      "lat": "37.5727219"
    },
        {
      "name": "삼익부동산랜드공인중개사사무소",
      "owner": "원종산",
      "address": "서울특별시 동대문구  한천로55길 9(이문동)",
      "lon": "127.0673372",
      "lat": "37.5960473"
    },
        {
      "name": "부동산플러스외대점공인중개사사무소",
      "owner": "전숙자",
      "address": "서울특별시 동대문구 외대역동로  75, 1층(이문동)",
      "lon": "127.0645869",
      "lat": "37.5950387"
    },
        {
      "name": "단지내월드부동산공인중개사사무소",
      "owner": "정귀옥",
      "address": "서울특별시 동대문구 답십리로  130, 2-4호(답십리동)",
      "lon": "127.0538624",
      "lat": "37.5712880"
    },
        {
      "name": "재테크공인중개사사무소",
      "owner": "김지윤",
      "address": "서울특별시 동대문구  약령시로 28,상가1층(제기동)",
      "lon": "127.0330302",
      "lat": "37.5826671"
    },
        {
      "name": "청계행운부동산공인중개사사무소",
      "owner": "손인명",
      "address": "서울특별시 동대문구 천호대로  227, 1층(답십리동)",
      "lon": "127.0481023",
      "lat": "37.5705488"
    },
        {
      "name": "좋은집(02-2216-9900)단지내부동산공인중개사사무소",
      "owner": "박종순",
      "address": "서울특별시 동대문구 사가정로 65, 근린생활시설1 113-2호(전농동, 래미안크레시티)",
      "lon": "127.0515338",
      "lat": "37.5767239"
    },
        {
      "name": "11번지공인중개사사무소",
      "owner": "이기수",
      "address": "서울특별시 동대문구 장한로32길 19, 105동 104호(장안동, 삼성리치캐슬)",
      "lon": "127.0733147",
      "lat": "37.5758584"
    },
        {
      "name": "대경부동산공인중개사사무소",
      "owner": "이수민",
      "address": "서울특별시 동대문구 답십리로23길  70-4, 101호(전농동)",
      "lon": "127.0503778",
      "lat": "37.5782967"
    },
        {
      "name": "청량리역롯데(02-963-8952)부동산공인중개사사무소",
      "owner": "조현미",
      "address": "서울특별시 동대문구 답십리로  27, 111호(전농동, 청량리역 롯데캐슬 SKY-L65)",
      "lon": "127.0453793",
      "lat": "37.5794114"
    },
        {
      "name": "신화부동산공인중개사사무소",
      "owner": "최효순",
      "address": "서울특별시 동대문구 휘경로  43, 1층(휘경동)",
      "lon": "127.0647753",
      "lat": "37.5947388"
    },
        {
      "name": "썬공인중개사사무소",
      "owner": "백경자",
      "address": "서울특별시 동대문구  장안벚꽃로1길 7,상가동 102호(장안동, 장안힐스테이트)",
      "lon": "127.0755981",
      "lat": "37.5761003"
    },
        {
      "name": "천우공인중개사사무소",
      "owner": "김경자",
      "address": "서울특별시 동대문구 전농로17길 50, 102호(전농동)",
      "lon": "127.0546308",
      "lat": "37.5795871"
    },
        {
      "name": "ACE공인중개사사무소",
      "owner": "안호형",
      "address": "서울특별시 동대문구 망우로 129, 103호(휘경동)",
      "lon": "127.0671469",
      "lat": "37.5918726"
    },
        {
      "name": "동부공인중개사사무소",
      "owner": "김명숙",
      "address": "서울특별시 동대문구 외대역동로 19(휘경동)",
      "lon": "127.0673878",
      "lat": "37.5911297"
    },
        {
      "name": "신한공인중개사사무소",
      "owner": "조종흠",
      "address": "서울특별시 동대문구  회기로 197(휘경동)",
      "lon": "127.0578364",
      "lat": "37.5902232"
    },
        {
      "name": "(주)현대만석부동산중개법인",
      "owner": "최만석",
      "address": "서울특별시 동대문구 장한로  91, 102호(장안동, 현대썬앤빌)",
      "lon": "127.0693529",
      "lat": "37.5691502"
    },
        {
      "name": "태성부동산공인중개사사무소",
      "owner": "김순종",
      "address": "서울특별시 동대문구 서울시립대로28길 4, 1층(전농동)",
      "lon": "127.0530491",
      "lat": "37.5825526"
    },
        {
      "name": "원플러스공인중개사사무소",
      "owner": "박인숙",
      "address": "서울특별시 동대문구 전농로38가길  4, 1층(전농동)",
      "lon": "127.0526965",
      "lat": "37.5855523"
    },
  ]
}
